{
  "CN": [
      { "region": "Beijing", "title": "Beijing", "latitude": 39.9042, "longitude": 116.4074 },
      { "region": "Tianjin", "title": "Tianjin", "latitude": 39.3434, "longitude": 117.3616 },
      { "region": "Hebei", "title": "Shijiazhuang", "latitude": 38.0428, "longitude": 114.5149 },
      { "region": "Shanxi", "title": "Taiyuan", "latitude": 37.8706, "longitude": 112.5489 },
      { "region": "Inner Mongolia", "title": "Hohhot", "latitude": 40.8424, "longitude": 111.7492 },
      { "region": "Liaoning", "title": "Shenyang", "latitude": 41.8057, "longitude": 123.4315 },
      { "region": "Jilin", "title": "Changchun", "latitude": 43.886, "longitude": 125.3245 },
      { "region": "Heilongjiang", "title": "Harbin", "latitude": 45.8038, "longitude": 126.5349 },
      { "region": "Shanghai", "title": "Shanghai", "latitude": 31.2304, "longitude": 121.4737 },
      { "region": "Jiangsu", "title": "Nanjing", "latitude": 32.0603, "longitude": 118.7969 },
      { "region": "Zhejiang", "title": "Hangzhou", "latitude": 30.2741, "longitude": 120.1551 },
      { "region": "Anhui", "title": "Hefei", "latitude": 31.8206, "longitude": 117.229 },
      { "region": "Fujian", "title": "Fuzhou", "latitude": 26.0745, "longitude": 119.2965 },
      { "region": "Jiangxi", "title": "Nanchang", "latitude": 28.6757, "longitude": 115.9092 },
      { "region": "Shandong", "title": "Jinan", "latitude": 36.6512, "longitude": 117.1201 },
      { "region": "Henan", "title": "Zhengzhou", "latitude": 34.7473, "longitude": 113.6249 },
      { "region": "Hubei", "title": "Wuhan", "latitude": 30.5928, "longitude": 114.3055 },
      { "region": "Hunan", "title": "Changsha", "latitude": 28.2282, "longitude": 112.9388 },
      { "region": "Guangdong", "title": "Guangzhou", "latitude": 23.1291, "longitude": 113.2644 },
      { "region": "Guangxi", "title": "Nanning", "latitude": 22.817, "longitude": 108.3669 },
      { "region": "Hainan", "title": "Haikou", "latitude": 20.0318, "longitude": 110.3312 },
      { "region": "Chongqing", "title": "Chongqing", "latitude": 29.5634, "longitude": 106.5507 },
      { "region": "Sichuan", "title": "Chengdu", "latitude": 30.5728, "longitude": 104.0668 },
      { "region": "Guizhou", "title": "Guiyang", "latitude": 26.6477, "longitude": 106.6302 },
      { "region": "Yunnan", "title": "Kunming", "latitude": 24.8801, "longitude": 102.8329 },
      { "region": "Tibet", "title": "Lhasa", "latitude": 29.6525, "longitude": 91.1721 },
      { "region": "Shaanxi", "title": "Xi'an", "latitude": 34.3416, "longitude": 108.9398 },
      { "region": "Gansu", "title": "Lanzhou", "latitude": 36.0611, "longitude": 103.8343 },
      { "region": "Qinghai", "title": "Xining", "latitude": 36.6171, "longitude": 101.7782 },
      { "region": "Ningxia", "title": "Yinchuan", "latitude": 38.4872, "longitude": 106.2309 },
      { "region": "Xinjiang", "title": "Urumqi", "latitude": 43.8256, "longitude": 87.6169 }
  ],
  "US": [
      { "state": "Alabama", "title": "Montgomery", "latitude": 32.3770, "longitude": -86.3000 },
      { "state": "Alaska", "title": "Juneau", "latitude": 58.3019, "longitude": -134.4197 },
      { "state": "Arizona", "title": "Phoenix", "latitude": 33.4484, "longitude": -112.0740 },
      { "state": "Arkansas", "title": "Little Rock", "latitude": 34.7465, "longitude": -92.2896 },
      { "state": "California", "title": "Los Angeles", "latitude": 34.0522, "longitude": -118.2437 },
      { "state": "California", "title": "San Francisco", "latitude": 37.7749, "longitude": -122.4194 },
      { "state": "Colorado", "title": "Denver", "latitude": 39.7392, "longitude": -104.9903 },
      { "state": "Connecticut", "title": "Hartford", "latitude": 41.7658, "longitude": -72.6734 },
      { "state": "Delaware", "title": "Dover", "latitude": 39.1582, "longitude": -75.5244 },
      { "state": "Florida", "title": "Tallahassee", "latitude": 30.4383, "longitude": -84.2807 },
      { "state": "Georgia", "title": "Atlanta", "latitude": 33.7490, "longitude": -84.3880 },
      { "state": "Hawaii", "title": "Honolulu", "latitude": 21.3069, "longitude": -157.8583 },
      { "state": "Idaho", "title": "Boise", "latitude": 43.6150, "longitude": -116.2023 },
      { "state": "Illinois", "title": "Chicago", "latitude": 41.8781, "longitude": -87.6298 },
      { "state": "Indiana", "title": "Indianapolis", "latitude": 39.7684, "longitude": -86.1581 },
      { "state": "Iowa", "title": "Des Moines", "latitude": 41.5868, "longitude": -93.6250 },
      { "state": "Kansas", "title": "Topeka", "latitude": 39.0473, "longitude": -95.6752 },
      { "state": "Kentucky", "title": "Frankfort", "latitude": 38.2009, "longitude": -84.8733 },
      { "state": "Louisiana", "title": "Baton Rouge", "latitude": 30.4515, "longitude": -91.1871 },
      { "state": "Maine", "title": "Augusta", "latitude": 44.3106, "longitude": -69.7795 },
      { "state": "Maryland", "title": "Annapolis", "latitude": 38.9784, "longitude": -76.4922 },
      { "state": "Massachusetts", "title": "Boston", "latitude": 42.3601, "longitude": -71.0589 },
      { "state": "Michigan", "title": "Lansing", "latitude": 42.7325, "longitude": -84.5555 },
      { "state": "Minnesota", "title": "Saint Paul", "latitude": 44.9537, "longitude": -93.0900 },
      { "state": "Mississippi", "title": "Jackson", "latitude": 32.2988, "longitude": -90.1848 },
      { "state": "Missouri", "title": "Jefferson City", "latitude": 38.5767, "longitude": -92.1735 },
      { "state": "Montana", "title": "Helena", "latitude": 46.5891, "longitude": -112.0391 },
      { "state": "Nebraska", "title": "Lincoln", "latitude": 40.8136, "longitude": -96.7026 },
      { "state": "Nevada", "title": "Carson City", "latitude": 39.1638, "longitude": -119.7674 },
      { "state": "New Hampshire", "title": "Concord", "latitude": 43.2081, "longitude": -71.5376 },
      { "state": "New Jersey", "title": "Trenton", "latitude": 40.2206, "longitude": -74.7699 },
      { "state": "New Mexico", "title": "Santa Fe", "latitude": 35.6870, "longitude": -105.9378 },
      { "state": "New York", "title": "Albany", "latitude": 42.6526, "longitude": -73.7562 },
      { "state": "New York", "title": "New York City", "latitude": 40.7128, "longitude": -74.0060 },
      { "state": "North Carolina", "title": "Raleigh", "latitude": 35.7796, "longitude": -78.6382 },
      { "state": "North Dakota", "title": "Bismarck", "latitude": 46.8083, "longitude": -100.7837 },
      { "state": "Ohio", "title": "Columbus", "latitude": 39.9612, "longitude": -82.9988 },
      { "state": "Oklahoma", "title": "Oklahoma City", "latitude": 35.4676, "longitude": -97.5164 },
      { "state": "Oregon", "title": "Salem", "latitude": 44.9429, "longitude": -123.0351 },
      { "state": "Pennsylvania", "title": "Harrisburg", "latitude": 40.2732, "longitude": -76.8867 },
      { "state": "Pennsylvania", "title": "Philadelphia", "latitude": 39.9526, "longitude": -75.1652 },
      { "state": "Rhode Island", "title": "Providence", "latitude": 41.8236, "longitude": -71.4222 },
      { "state": "South Carolina", "title": "Columbia", "latitude": 34.0007, "longitude": -81.0348 },
      { "state": "South Dakota", "title": "Pierre", "latitude": 44.3683, "longitude": -100.3510 },
      { "state": "Tennessee", "title": "Nashville", "latitude": 36.1627, "longitude": -86.7816 },
      { "state": "Texas", "title": "Austin", "latitude": 30.2672, "longitude": -97.7431 },
      { "state": "Texas", "title": "Houston", "latitude": 29.7604, "longitude": -95.3698 },
      { "state": "Texas", "title": "Dallas", "latitude": 32.7767, "longitude": -96.7970 },
      { "state": "Texas", "title": "San Antonio", "latitude": 29.4241, "longitude": -98.4936 },
      { "state": "Utah", "title": "Salt Lake City", "latitude": 40.7608, "longitude": -111.8910 },
      { "state": "Vermont", "title": "Montpelier", "latitude": 44.2601, "longitude": -72.5754 },
      { "state": "Virginia", "title": "Richmond", "latitude": 37.5407, "longitude": -77.4360 },
      { "state": "Washington", "title": "Olympia", "latitude": 47.0379, "longitude": -122.9007 },
      { "state": "West Virginia", "title": "Charleston", "latitude": 38.3498, "longitude": -81.6326 },
      { "state": "Wisconsin", "title": "Madison", "latitude": 43.0731, "longitude": -89.4012 },
      { "state": "Wyoming", "title": "Cheyenne", "latitude": 41.1400, "longitude": -104.8202 }
  ],
  "AC": { "title": "Ascension Island", "latitude": -7.9467, "longitude": -14.3559 },
  "AD": { "title": "Andorra", "latitude": 42.5063, "longitude": 1.5218 },
  "AE": { "title": "United Arab Emirates", "latitude": 23.4241, "longitude": 53.8478 },
  "AF": { "title": "Afghanistan", "latitude": 33.9391, "longitude": 67.7100 },
  "AG": { "title": "Antigua and Barbuda", "latitude": 17.0608, "longitude": -61.7964 },
  "AI": { "title": "Anguilla", "latitude": 18.2206, "longitude": -63.0686 },
  "AL": { "title": "Albania", "latitude": 41.1533, "longitude": 20.1683 },
  "AM": { "title": "Armenia", "latitude": 40.0691, "longitude": 45.0382 },
  "AO": { "title": "Angola", "latitude": -11.2027, "longitude": 17.8739 },
  "AQ": { "title": "Antarctica", "latitude": -82.8628, "longitude": 135.0000 },
  "AR": { "title": "Argentina", "latitude": -38.4161, "longitude": -63.6167 },
  "AS": { "title": "American Samoa", "latitude": -14.2710, "longitude": -170.1322 },
  "AT": { "title": "Austria", "latitude": 47.5162, "longitude": 14.5501 },
  "AU": { "title": "Australia", "latitude": -25.2744, "longitude": 133.7751 },
  "AW": { "title": "Aruba", "latitude": 12.5211, "longitude": -69.9683 },
  "AX": { "title": "Aland Islands", "latitude": 60.1785, "longitude": 19.9156 },
  "AZ": { "title": "Azerbaijan", "latitude": 40.1431, "longitude": 47.5769 },
  "BA": { "title": "Bosnia and Herzegovina", "latitude": 43.9159, "longitude": 17.6791 },
  "BB": { "title": "Barbados", "latitude": 13.1939, "longitude": -59.5432 },
  "BD": { "title": "Bangladesh", "latitude": 23.6850, "longitude": 90.3563 },
  "BE": { "title": "Belgium", "latitude": 50.8503, "longitude": 4.3517 },
  "BF": { "title": "Burkina Faso", "latitude": 12.2383, "longitude": -1.5616 },
  "BG": { "title": "Bulgaria", "latitude": 42.7339, "longitude": 25.4858 },
  "BH": { "title": "Bahrain", "latitude": 26.0667, "longitude": 50.5577 },
  "BI": { "title": "Burundi", "latitude": -3.3731, "longitude": 29.9189 },
  "BJ": { "title": "Benin", "latitude": 9.3077, "longitude": 2.3158 },
  "BL": { "title": "Saint Barthelemy", "latitude": 17.9000, "longitude": -62.8333 },
  "BM": { "title": "Bermuda", "latitude": 32.3078, "longitude": -64.7505 },
  "BN": { "title": "Brunei", "latitude": 4.5353, "longitude": 114.7277 },
  "BO": { "title": "Bolivia", "latitude": -16.2902, "longitude": -63.5887 },
  "BQ": { "title": "Bonaire", "latitude": 12.2019, "longitude": -68.2624 },
  "BR": { "title": "Brazil", "latitude": -14.2350, "longitude": -51.9253 },
  "BS": { "title": "Bahamas", "latitude": 25.0343, "longitude": -77.3963 },
  "BT": { "title": "Bhutan", "latitude": 27.5142, "longitude": 90.4336 },
  "BV": { "title": "Bouvet Island", "latitude": -54.4232, "longitude": 3.4130 },
  "BW": { "title": "Botswana", "latitude": -22.3285, "longitude": 24.6849 },
  "BY": { "title": "Belarus", "latitude": 53.7098, "longitude": 27.9534 },
  "BZ": { "title": "Belize", "latitude": 17.1899, "longitude": -88.4976 },
  "CA": { "title": "Canada", "latitude": 56.1304, "longitude": -106.3468 },
  "CC": { "title": "Cocos Islands", "latitude": -12.1642, "longitude": 96.8709 },
  "CD": { "title": "Democratic Republic of the Congo", "latitude": -4.0383, "longitude": 21.7587 },
  "CF": { "title": "Central African Republic", "latitude": 6.6111, "longitude": 20.9394 },
  "CG": { "title": "Republic of the Congo", "latitude": -0.2280, "longitude": 15.8277 },
  "CH": { "title": "Switzerland", "latitude": 46.8182, "longitude": 8.2275 },
  "CI": { "title": "Ivory Coast", "latitude": 7.5399, "longitude": -5.5471 },
  "CK": { "title": "Cook Islands", "latitude": -21.2367, "longitude": -159.7777 },
  "CL": { "title": "Chile", "latitude": -35.6751, "longitude": -71.5430 },
  "CM": { "title": "Cameroon", "latitude": 7.3697, "longitude": 12.3547 },
  "CO": { "title": "Colombia", "latitude": 4.5709, "longitude": -74.2973 },
  "CR": { "title": "Costa Rica", "latitude": 9.7489, "longitude": -83.7534 },
  "CU": { "title": "Cuba", "latitude": 21.5218, "longitude": -77.7812 },
  "CV": { "title": "Cape Verde", "latitude": 16.5388, "longitude": -23.0418 },
  "CW": { "title": "Curacao", "latitude": 12.1696, "longitude": -68.9900 },
  "CX": { "title": "Christmas Island", "latitude": -10.4475, "longitude": 105.6904 },
  "CY": { "title": "Cyprus", "latitude": 35.1264, "longitude": 33.4299 },
  "CZ": { "title": "Czech Republic", "latitude": 49.8175, "longitude": 15.4730 },
  "DE": { "title": "Germany", "latitude": 51.1657, "longitude": 10.4515 },
  "DG": { "title": "Diego Garcia", "latitude": -7.3130, "longitude": 72.4129 },
  "DJ": { "title": "Djibouti", "latitude": 11.8251, "longitude": 42.5903 },
  "DK": { "title": "Denmark", "latitude": 56.2639, "longitude": 9.5018 },
  "DM": { "title": "Dominica", "latitude": 15.4150, "longitude": -61.3710 },
  "DO": { "title": "Dominican Republic", "latitude": 18.7357, "longitude": -70.1627 },
  "DZ": { "title": "Algeria", "latitude": 28.0339, "longitude": 1.6596 },
  "EC": { "title": "Ecuador", "latitude": -1.8312, "longitude": -78.1834 },
  "EE": { "title": "Estonia", "latitude": 58.5953, "longitude": 25.0136 },
  "EG": { "title": "Egypt", "latitude": 26.8206, "longitude": 30.8025 },
  "EH": { "title": "Western Sahara", "latitude": 24.2155, "longitude": -12.8858 },
  "ER": { "title": "Eritrea", "latitude": 15.1794, "longitude": 39.7823 },
  "ES": { "title": "Spain", "latitude": 40.4637, "longitude": -3.7492 },
  "ET": { "title": "Ethiopia", "latitude": 9.1450, "longitude": 40.4897 },
  "FI": { "title": "Finland", "latitude": 61.9241, "longitude": 25.7482 },
  "FJ": { "title": "Fiji", "latitude": -17.7134, "longitude": 178.0650 },
  "FK": { "title": "Falkland Islands", "latitude": -51.7963, "longitude": -59.5236 },
  "FM": { "title": "Micronesia", "latitude": 7.4256, "longitude": 150.5508 },
  "FO": { "title": "Faroe Islands", "latitude": 61.8926, "longitude": -6.9118 },
  "FR": { "title": "France", "latitude": 46.6034, "longitude": 1.8883 },
  "GA": { "title": "Gabon", "latitude": -0.8037, "longitude": 11.6094 },
  "GB": { "title": "United Kingdom", "latitude": 55.3781, "longitude": -3.4360 },
  "GD": { "title": "Grenada", "latitude": 12.2628, "longitude": -61.6042 },
  "GE": { "title": "Georgia", "latitude": 42.3154, "longitude": 43.3569 },
  "GF": { "title": "French Guiana", "latitude": 3.9339, "longitude": -53.1258 },
  "GG": { "title": "Guernsey", "latitude": 49.4657, "longitude": -2.5853 },
  "GH": { "title": "Ghana", "latitude": 7.9465, "longitude": -1.0232 },
  "GI": { "title": "Gibraltar", "latitude": 36.1408, "longitude": -5.3536 },
  "GL": { "title": "Greenland", "latitude": 71.7069, "longitude": -42.6043 },
  "GM": { "title": "Gambia", "latitude": 13.4432, "longitude": -15.3101 },
  "GN": { "title": "Guinea", "latitude": 9.9456, "longitude": -9.6966 },
  "GP": { "title": "Guadeloupe", "latitude": 16.2650, "longitude": -61.5510 },
  "GQ": { "title": "Equatorial Guinea", "latitude": 1.6508, "longitude": 10.2679 },
  "GR": { "title": "Greece", "latitude": 39.0742, "longitude": 21.8243 },
  "GT": { "title": "Guatemala", "latitude": 15.7835, "longitude": -90.2308 },
  "GU": { "title": "Guam", "latitude": 13.4443, "longitude": 144.7937 },
  "GW": { "title": "Guinea-Bissau", "latitude": 11.8037, "longitude": -15.1804 },
  "GY": { "title": "Guyana", "latitude": 4.8604, "longitude": -58.9302 },
  "HK": { "title": "Hong Kong", "latitude": 22.3193, "longitude": 114.1694 },
  "HM": { "title": "Heard Island and McDonald Islands", "latitude": -53.0818, "longitude": 73.5042 },
  "HN": { "title": "Honduras", "latitude": 15.2000, "longitude": -86.2419 },
  "HR": { "title": "Croatia", "latitude": 45.1000, "longitude": 15.2000 },
  "HT": { "title": "Haiti", "latitude": 18.9712, "longitude": -72.2852 },
  "HU": { "title": "Hungary", "latitude": 47.1625, "longitude": 19.5033 },
  "ID": { "title": "Indonesia", "latitude": -0.7893, "longitude": 113.9213 },
  "IE": { "title": "Ireland", "latitude": 53.1424, "longitude": -7.6921 },
  "IL": { "title": "Israel", "latitude": 31.0461, "longitude": 34.8516 },
  "IM": { "title": "Isle of Man", "latitude": 54.2361, "longitude": -4.5481 },
  "IN": { "title": "India", "latitude": 20.5937, "longitude": 78.9629 },
  "IO": { "title": "British Indian Ocean Territory", "latitude": -6.3433, "longitude": 71.8765 },
  "IQ": { "title": "Iraq", "latitude": 33.2232, "longitude": 43.6793 },
  "IR": { "title": "Iran", "latitude": 32.4279, "longitude": 53.6880 },
  "IS": { "title": "Iceland", "latitude": 64.9631, "longitude": -19.0208 },
  "IT": { "title": "Italy", "latitude": 41.8719, "longitude": 12.5674 },
  "JE": { "title": "Jersey", "latitude": 49.2144, "longitude": -2.1313 },
  "JM": { "title": "Jamaica", "latitude": 18.1096, "longitude": -77.2975 },
  "JO": { "title": "Jordan", "latitude": 30.5852, "longitude": 36.2384 },
  "JP": { "title": "Japan", "latitude": 36.2048, "longitude": 138.2529 },
  "KE": { "title": "Kenya", "latitude": -1.2921, "longitude": 36.8219 },
  "KG": { "title": "Kyrgyzstan", "latitude": 41.2044, "longitude": 74.7661 },
  "KH": { "title": "Cambodia", "latitude": 12.5657, "longitude": 104.9910 },
  "KI": { "title": "Kiribati", "latitude": -3.3704, "longitude": -168.7340 },
  "KM": { "title": "Comoros", "latitude": -11.8750, "longitude": 43.8722 },
  "KN": { "title": "Saint Kitts and Nevis", "latitude": 17.3578, "longitude": -62.7829 },
  "KP": { "title": "North Korea", "latitude": 40.3399, "longitude": 127.5101 },
  "KR": { "title": "South Korea", "latitude": 35.9078, "longitude": 127.7669 },
  "KW": { "title": "Kuwait", "latitude": 29.3117, "longitude": 47.4818 },
  "KY": { "title": "Cayman Islands", "latitude": 19.3133, "longitude": -81.2546 },
  "KZ": { "title": "Kazakhstan", "latitude": 48.0196, "longitude": 66.9237 },
  "LA": { "title": "Laos", "latitude": 19.8563, "longitude": 102.4955 },
  "LB": { "title": "Lebanon", "latitude": 33.8547, "longitude": 35.8623 },
  "LC": { "title": "Saint Lucia", "latitude": 13.9094, "longitude": -60.9789 },
  "LI": { "title": "Liechtenstein", "latitude": 47.1660, "longitude": 9.5554 },
  "LK": { "title": "Sri Lanka", "latitude": 7.8731, "longitude": 80.7718 },
  "LR": { "title": "Liberia", "latitude": 6.4281, "longitude": -9.4295 },
  "LS": { "title": "Lesotho", "latitude": -29.6099, "longitude": 28.2336 },
  "LT": { "title": "Lithuania", "latitude": 55.1694, "longitude": 23.8813 },
  "LU": { "title": "Luxembourg", "latitude": 49.8153, "longitude": 6.1296 },
  "LV": { "title": "Latvia", "latitude": 56.8796, "longitude": 24.6032 },
  "LY": { "title": "Libya", "latitude": 26.3351, "longitude": 17.2283 },
  "MA": { "title": "Morocco", "latitude": 31.7917, "longitude": -7.0926 },
  "MC": { "title": "Monaco", "latitude": 43.7384, "longitude": 7.4246 },
  "MD": { "title": "Moldova", "latitude": 47.4116, "longitude": 28.3699 },
  "ME": { "title": "Montenegro", "latitude": 42.7087, "longitude": 19.3744 },
  "MF": { "title": "Saint Martin", "latitude": 18.0708, "longitude": -63.0501 },
  "MG": { "title": "Madagascar", "latitude": -18.7669, "longitude": 46.8691 },
  "MH": { "title": "Marshall Islands", "latitude": 7.1315, "longitude": 171.1845 },
  "MK": { "title": "North Macedonia", "latitude": 41.6086, "longitude": 21.7453 },
  "ML": { "title": "Mali", "latitude": 17.5707, "longitude": -3.9962 },
  "MM": { "title": "Myanmar", "latitude": 21.9162, "longitude": 95.9560 },
  "MN": { "title": "Mongolia", "latitude": 46.8625, "longitude": 103.8467 },
  "MO": { "title": "Macau", "latitude": 22.1987, "longitude": 113.5439 },
  "MP": { "title": "Northern Mariana Islands", "latitude": 15.0979, "longitude": 145.6739 },
  "MQ": { "title": "Martinique", "latitude": 14.6415, "longitude": -61.0242 },
  "MR": { "title": "Mauritania", "latitude": 21.0079, "longitude": -10.9408 },
  "MS": { "title": "Montserrat", "latitude": 16.7425, "longitude": -62.1874 },
  "MT": { "title": "Malta", "latitude": 35.9375, "longitude": 14.3754 },
  "MU": { "title": "Mauritius", "latitude": -20.3484, "longitude": 57.5522 },
  "MV": { "title": "Maldives", "latitude": 3.2028, "longitude": 73.2207 },
  "MW": { "title": "Malawi", "latitude": -13.2543, "longitude": 34.3015 },
  "MX": { "title": "Mexico", "latitude": 23.6345, "longitude": -102.5528 },
  "MY": { "title": "Malaysia", "latitude": 4.2105, "longitude": 101.9758 },
  "MZ": { "title": "Mozambique", "latitude": -18.6657, "longitude": 35.5296 },
  "NA": { "title": "Namibia", "latitude": -22.9576, "longitude": 18.4904 },
  "NC": { "title": "New Caledonia", "latitude": -20.9043, "longitude": 165.6180 },
  "NE": { "title": "Niger", "latitude": 17.6078, "longitude": 8.0817 },
  "NF": { "title": "Norfolk Island", "latitude": -29.0408, "longitude": 167.9547 },
  "NG": { "title": "Nigeria", "latitude": 9.0820, "longitude": 8.6753 },
  "NI": { "title": "Nicaragua", "latitude": 12.8654, "longitude": -85.2072 },
  "NL": { "title": "Netherlands", "latitude": 52.1326, "longitude": 5.2913 },
  "NO": { "title": "Norway", "latitude": 60.4720, "longitude": 8.4689 },
  "NP": { "title": "Nepal", "latitude": 28.3949, "longitude": 84.1240 },
  "NR": { "title": "Nauru", "latitude": -0.5228, "longitude": 166.9315 },
  "NU": { "title": "Niue", "latitude": -19.0544, "longitude": -169.8672 },
  "NZ": { "title": "New Zealand", "latitude": -40.9006, "longitude": 174.8860 },
  "OM": { "title": "Oman", "latitude": 21.5126, "longitude": 55.9233 },
  "PA": { "title": "Panama", "latitude": 8.5380, "longitude": -80.7821 },
  "PE": { "title": "Peru", "latitude": -9.1900, "longitude": -75.0152 },
  "PF": { "title": "French Polynesia", "latitude": -17.6797, "longitude": -149.4068 },
  "PG": { "title": "Papua New Guinea", "latitude": -6.3149, "longitude": 143.9555 },
  "PH": { "title": "Philippines", "latitude": 12.8797, "longitude": 121.7740 },
  "PK": { "title": "Pakistan", "latitude": 30.3753, "longitude": 69.3451 },
  "PL": { "title": "Poland", "latitude": 51.9194, "longitude": 19.1451 },
  "PM": { "title": "Saint Pierre and Miquelon", "latitude": 46.9419, "longitude": -56.2711 },
  "PN": { "title": "Pitcairn Islands", "latitude": -24.7036, "longitude": -127.4393 },
  "PR": { "title": "Puerto Rico", "latitude": 18.2208, "longitude": -66.5901 },
  "PT": { "title": "Portugal", "latitude": 39.3999, "longitude": -8.2245 },
  "PW": { "title": "Palau", "latitude": 7.5150, "longitude": 134.5825 },
  "PY": { "title": "Paraguay", "latitude": -23.4425, "longitude": -58.4438 },
  "QA": { "title": "Qatar", "latitude": 25.3548, "longitude": 51.1839 },
  "RE": { "title": "Reunion", "latitude": -21.1151, "longitude": 55.5364 },
  "RO": { "title": "Romania", "latitude": 45.9432, "longitude": 24.9668 },
  "RS": { "title": "Serbia", "latitude": 44.0165, "longitude": 21.0059 },
  "RU": { "title": "Russia", "latitude": 61.5240, "longitude": 105.3188 },
  "RW": { "title": "Rwanda", "latitude": -1.9403, "longitude": 29.8739 },
  "SA": { "title": "Saudi Arabia", "latitude": 23.8859, "longitude": 45.0792 },
  "SB": { "title": "Solomon Islands", "latitude": -9.6457, "longitude": 160.1562 },
  "SC": { "title": "Seychelles", "latitude": -4.6796, "longitude": 55.4919 },
  "SD": { "title": "Sudan", "latitude": 12.8628, "longitude": 30.2176 },
  "SE": { "title": "Sweden", "latitude": 60.1282, "longitude": 18.6435 },
  "SG": { "title": "Singapore", "latitude": 1.3521, "longitude": 103.8198 },
  "SH": { "title": "Saint Helena", "latitude": -15.9650, "longitude": -5.7089 },
  "SI": { "title": "Slovenia", "latitude": 46.1512, "longitude": 14.9955 },
  "SJ": { "title": "Svalbard and Jan Mayen", "latitude": 77.5536, "longitude": 23.6703 },
  "SK": { "title": "Slovakia", "latitude": 48.6690, "longitude": 19.6990 },
  "SL": { "title": "Sierra Leone", "latitude": 8.4606, "longitude": -11.7799 },
  "SM": { "title": "San Marino", "latitude": 43.9424, "longitude": 12.4578 },
  "SN": { "title": "Senegal", "latitude": 14.4974, "longitude": -14.4524 },
  "SO": { "title": "Somalia", "latitude": 5.1521, "longitude": 46.1996 },
  "SR": { "title": "Suriname", "latitude": 3.9193, "longitude": -56.0278 },
  "SS": { "title": "South Sudan", "latitude": 6.8770, "longitude": 31.3070 },
  "ST": { "title": "Sao Tome and Principe", "latitude": 0.1864, "longitude": 6.6131 },
  "SV": { "title": "El Salvador", "latitude": 13.7942, "longitude": -88.8965 },
  "SX": { "title": "Sint Maarten", "latitude": 18.0425, "longitude": -63.0548 },
  "SY": { "title": "Syria", "latitude": 34.8021, "longitude": 38.9968 },
  "SZ": { "title": "Eswatini", "latitude": -26.5225, "longitude": 31.4659 },
  "TC": { "title": "Turks and Caicos Islands", "latitude": 21.6940, "longitude": -71.7979 },
  "TD": { "title": "Chad", "latitude": 15.4542, "longitude": 18.7322 },
  "TF": { "title": "French Southern Territories", "latitude": -49.2804, "longitude": 69.3486 },
  "TG": { "title": "Togo", "latitude": 8.6195, "longitude": 0.8248 },
  "TH": { "title": "Thailand", "latitude": 15.8700, "longitude": 100.9925 },
  "TJ": { "title": "Tajikistan", "latitude": 38.8610, "longitude": 71.2761 },
  "TK": { "title": "Tokelau", "latitude": -9.2001, "longitude": -171.8484 },
  "TL": { "title": "Timor-Leste", "latitude": -8.8742, "longitude": 125.7275 },
  "TM": { "title": "Turkmenistan", "latitude": 38.9697, "longitude": 59.5563 },
  "TN": { "title": "Tunisia", "latitude": 33.8869, "longitude": 9.5375 },
  "TO": { "title": "Tonga", "latitude": -21.1790, "longitude": -175.1982 },
  "TR": { "title": "Turkey", "latitude": 38.9637, "longitude": 35.2433 },
  "TT": { "title": "Trinidad and Tobago", "latitude": 10.6918, "longitude": -61.2225 },
  "TW": { "title": "Taiwan", "latitude": 23.6978, "longitude": 120.9605 },
  "TV": { "title": "Tuvalu", "latitude": -7.1095, "longitude": 177.6493 },
  "TZ": { "title": "Tanzania", "latitude": -6.3690, "longitude": 34.8888 },
  "UA": { "title": "Ukraine", "latitude": 48.3794, "longitude": 31.1656 },
  "UG": { "title": "Uganda", "latitude": 1.3733, "longitude": 32.2903 },
  "UM": { "title": "United States Minor Outlying Islands", "latitude": 19.2823, "longitude": 166.6470 },
  "UY": { "title": "Uruguay", "latitude": -32.5228, "longitude": -55.7658 },
  "UZ": { "title": "Uzbekistan", "latitude": 41.3775, "longitude": 64.5853 },
  "VA": { "title": "Vatican City", "latitude": 41.9029, "longitude": 12.4534 },
  "VC": { "title": "Saint Vincent and the Grenadines", "latitude": 13.2528, "longitude": -61.1971 },
  "VE": { "title": "Venezuela", "latitude": 6.4238, "longitude": -66.5897 },
  "VG": { "title": "British Virgin Islands", "latitude": 18.4207, "longitude": -64.6399 },
  "VI": { "title": "U.S. Virgin Islands", "latitude": 18.3358, "longitude": -64.8963 },
  "VN": { "title": "Vietnam", "latitude": 14.0583, "longitude": 108.2772 },
  "VU": { "title": "Vanuatu", "latitude": -15.3767, "longitude": 166.9592 },
  "WF": { "title": "Wallis and Futuna", "latitude": -13.7688, "longitude": -177.1561 },
  "WS": { "title": "Samoa", "latitude": -13.7590, "longitude": -172.1046 },
  "YE": { "title": "Yemen", "latitude": 15.5527, "longitude": 48.5164 },
  "YT": { "title": "Mayotte", "latitude": -12.8275, "longitude": 45.1662 },
  "ZA": { "title": "South Africa", "latitude": -30.5595, "longitude": 22.9375 },
  "ZM": { "title": "Zambia", "latitude": -13.1339, "longitude": 27.8493 },
  "ZW": { "title": "Zimbabwe", "latitude": -19.0154, "longitude": 29.1549 }
}
